{
"type": "FeatureCollection",
"name": "Colorado_River_Dams_-_Sheet1_2",
"crs": { "type": "name", "properties": { "name": "urn:ogc:def:crs:EPSG::4269" } },
"features": [
{ "type": "Feature", "properties": { "Name": "Davis", "Lat": 35.19861, "Long": -114.567819, "MainPurpose": "Hydropower", "YearCompleted": "1951" }, "geometry": { "type": "Point", "coordinates": [ -114.567819, 35.19861 ] } },
{ "type": "Feature", "properties": { "Name": "Glen Canyon", "Lat": 36.937805, "Long": -111.483799, "MainPurpose": "Hydropower", "YearCompleted": "1966" }, "geometry": { "type": "Point", "coordinates": [ -111.483799, 36.937805 ] } },
{ "type": "Feature", "properties": { "Name": "Granby", "Lat": 40.147759, "Long": -105.865982, "MainPurpose": "Municipal", "YearCompleted": "1950" }, "geometry": { "type": "Point", "coordinates": [ -105.865982, 40.147759 ] } },
{ "type": "Feature", "properties": { "Name": "Grand Valley Diversion", "Lat": 39.188963, "Long": -108.282047, "MainPurpose": "Irrigation", "YearCompleted": "1916" }, "geometry": { "type": "Point", "coordinates": [ -108.282047, 39.188963 ] } },
{ "type": "Feature", "properties": { "Name": "Headgate Rock", "Lat": 34.168559, "Long": -114.277075, "MainPurpose": "Irrigation", "YearCompleted": "1941" }, "geometry": { "type": "Point", "coordinates": [ -114.277075, 34.168559 ] } },
{ "type": "Feature", "properties": { "Name": "Hoover", "Lat": 36.016196, "Long": -114.737259, "MainPurpose": "Hydropower", "YearCompleted": "1936" }, "geometry": { "type": "Point", "coordinates": [ -114.737259, 36.016196 ] } },
{ "type": "Feature", "properties": { "Name": "Imperial", "Lat": 32.883031, "Long": -114.465182, "MainPurpose": "Irrigation", "YearCompleted": "1938" }, "geometry": { "type": "Point", "coordinates": [ -114.465182, 32.883031 ] } },
{ "type": "Feature", "properties": { "Name": "Laguana Diversion", "Lat": 32.828174, "Long": -114.500001, "MainPurpose": "Diversion", "YearCompleted": "1905" }, "geometry": { "type": "Point", "coordinates": [ -114.500001, 32.828174 ] } },
{ "type": "Feature", "properties": { "Name": "Morelos", "Lat": 32.70599, "Long": -114.729564, "MainPurpose": "Irrigation", "YearCompleted": "1950" }, "geometry": { "type": "Point", "coordinates": [ -114.729564, 32.70599 ] } },
{ "type": "Feature", "properties": { "Name": "Palo Verde", "Lat": 33.731787, "Long": -114.511758, "MainPurpose": "Diversion", "YearCompleted": "1958" }, "geometry": { "type": "Point", "coordinates": [ -114.511758, 33.731787 ] } },
{ "type": "Feature", "properties": { "Name": "Parker ", "Lat": 34.296648, "Long": -114.139288, "MainPurpose": "Hydropower", "YearCompleted": "1938" }, "geometry": { "type": "Point", "coordinates": [ -114.139288, 34.296648 ] } },
{ "type": "Feature", "properties": { "Name": "Price-Stubb", "Lat": 39.103047, "Long": -108.349405, "MainPurpose": "Irrigation", "YearCompleted": "1911" }, "geometry": { "type": "Point", "coordinates": [ -108.349405, 39.103047 ] } },
{ "type": "Feature", "properties": { "Name": "Shadow Mountain", "Lat": 40.207165, "Long": -105.841418, "MainPurpose": "Municipal", "YearCompleted": "1946" }, "geometry": { "type": "Point", "coordinates": [ -105.841418, 40.207165 ] } },
{ "type": "Feature", "properties": { "Name": "Windy Gap", "Lat": 40.106903, "Long": -105.983918, "MainPurpose": "Municipal", "YearCompleted": "1970" }, "geometry": { "type": "Point", "coordinates": [ -105.983918, 40.106903 ] } },
{ "type": "Feature", "properties": { "Name": "Blue Mesa", "Lat": 38.453336, "Long": -107.33455, "MainPurpose": "Hydropower", "YearCompleted": "1966" }, "geometry": { "type": "Point", "coordinates": [ -107.33455, 38.453336 ] } },
{ "type": "Feature", "properties": { "Name": "Dillon", "Lat": 39.60345, "Long": -106.011544, "MainPurpose": "Municipal", "YearCompleted": "1963" }, "geometry": { "type": "Point", "coordinates": [ -106.011544, 39.60345 ] } },
{ "type": "Feature", "properties": { "Name": "Flaming Gorge", "Lat": 40.914728, "Long": -109.422255, "MainPurpose": "Hydropower", "YearCompleted": "1964" }, "geometry": { "type": "Point", "coordinates": [ -109.422255, 40.914728 ] } },
{ "type": "Feature", "properties": { "Name": "Fontenelle", "Lat": 42.026901, "Long": -110.066182, "MainPurpose": "Irrigation", "YearCompleted": "1964" }, "geometry": { "type": "Point", "coordinates": [ -110.066182, 42.026901 ] } },
{ "type": "Feature", "properties": { "Name": "Green Mountain", "Lat": 39.877388, "Long": -106.330525, "MainPurpose": "Hydropower", "YearCompleted": "1943" }, "geometry": { "type": "Point", "coordinates": [ -106.330525, 39.877388 ] } },
{ "type": "Feature", "properties": { "Name": "Joes Valley", "Lat": 39.288243, "Long": -111.270107, "MainPurpose": "Irrigation", "YearCompleted": "1966" }, "geometry": { "type": "Point", "coordinates": [ -111.270107, 39.288243 ] } },
{ "type": "Feature", "properties": { "Name": "McPhee", "Lat": 37.577239, "Long": -108.571784, "MainPurpose": "Irrigation", "YearCompleted": "1984" }, "geometry": { "type": "Point", "coordinates": [ -108.571784, 37.577239 ] } },
{ "type": "Feature", "properties": { "Name": "Morrow Point", "Lat": 38.451573, "Long": -107.538054, "MainPurpose": "Hydropower", "YearCompleted": "1968" }, "geometry": { "type": "Point", "coordinates": [ -107.538054, 38.451573 ] } },
{ "type": "Feature", "properties": { "Name": "Navajo", "Lat": 36.80165, "Long": -107.610324, "MainPurpose": "Municipal", "YearCompleted": "1962" }, "geometry": { "type": "Point", "coordinates": [ -107.610324, 36.80165 ] } },
{ "type": "Feature", "properties": { "Name": "Ridges Basin", "Lat": 37.219253, "Long": -107.895677, "MainPurpose": "Irrigation", "YearCompleted": "2007" }, "geometry": { "type": "Point", "coordinates": [ -107.895677, 37.219253 ] } },
{ "type": "Feature", "properties": { "Name": "Ridgeway", "Lat": 38.23663, "Long": -107.759448, "MainPurpose": "Irrigation", "YearCompleted": "1987" }, "geometry": { "type": "Point", "coordinates": [ -107.759448, 38.23663 ] } },
{ "type": "Feature", "properties": { "Name": "Ruedi", "Lat": 39.363016, "Long": -106.816879, "MainPurpose": "Irrigation", "YearCompleted": "1968" }, "geometry": { "type": "Point", "coordinates": [ -106.816879, 39.363016 ] } },
{ "type": "Feature", "properties": { "Name": "Scofield", "Lat": 39.786461, "Long": -111.119949, "MainPurpose": "Municipal", "YearCompleted": "1946" }, "geometry": { "type": "Point", "coordinates": [ -111.119949, 39.786461 ] } },
{ "type": "Feature", "properties": { "Name": "Soldier Creek", "Lat": 40.136686, "Long": -111.026981, "MainPurpose": "Municipal", "YearCompleted": "1974" }, "geometry": { "type": "Point", "coordinates": [ -111.026981, 40.136686 ] } },
{ "type": "Feature", "properties": { "Name": "Starvation", "Lat": 40.190708, "Long": -110.443298, "MainPurpose": "Irrigation", "YearCompleted": "1970" }, "geometry": { "type": "Point", "coordinates": [ -110.443298, 40.190708 ] } },
{ "type": "Feature", "properties": { "Name": "Taylor Park", "Lat": 38.818494, "Long": -106.605548, "MainPurpose": "Irrigation", "YearCompleted": "1937" }, "geometry": { "type": "Point", "coordinates": [ -106.605548, 38.818494 ] } },
{ "type": "Feature", "properties": { "Name": "Vallecito", "Lat": 37.378525, "Long": -107.574764, "MainPurpose": "Irrigation", "YearCompleted": "1941" }, "geometry": { "type": "Point", "coordinates": [ -107.574764, 37.378525 ] } },
{ "type": "Feature", "properties": { "Name": "Vega", "Lat": 39.224166, "Long": -107.810967, "MainPurpose": "Irrigation", "YearCompleted": "1959" }, "geometry": { "type": "Point", "coordinates": [ -107.810967, 39.224166 ] } },
{ "type": "Feature", "properties": { "Name": "Williams Fork", "Lat": 40.034971, "Long": -106.205524, "MainPurpose": "Municipal", "YearCompleted": "1959" }, "geometry": { "type": "Point", "coordinates": [ -106.205524, 40.034971 ] } },
{ "type": "Feature", "properties": { "Name": "Wolford Mountain", "Lat": 40.113092, "Long": -106.41523, "MainPurpose": "Municipal", "YearCompleted": "1996" }, "geometry": { "type": "Point", "coordinates": [ -106.41523, 40.113092 ] } },
{ "type": "Feature", "properties": { "Name": "Alamo", "Lat": 34.232713, "Long": -113.601073, "MainPurpose": "Flood Control", "YearCompleted": "1968" }, "geometry": { "type": "Point", "coordinates": [ -113.601073, 34.232713 ] } },
{ "type": "Feature", "properties": { "Name": "Bartlett", "Lat": 33.817925, "Long": -111.631869, "MainPurpose": "Irrigation", "YearCompleted": "1939" }, "geometry": { "type": "Point", "coordinates": [ -111.631869, 33.817925 ] } },
{ "type": "Feature", "properties": { "Name": "Coolidge", "Lat": 33.174958, "Long": -110.528277, "MainPurpose": "Irrigation", "YearCompleted": "1930" }, "geometry": { "type": "Point", "coordinates": [ -110.528277, 33.174958 ] } },
{ "type": "Feature", "properties": { "Name": "Horse Mesa", "Lat": 33.591027, "Long": -111.344392, "MainPurpose": "Hydropower", "YearCompleted": "1927" }, "geometry": { "type": "Point", "coordinates": [ -111.344392, 33.591027 ] } },
{ "type": "Feature", "properties": { "Name": "Horseshoe", "Lat": 33.983792, "Long": -111.710987, "MainPurpose": "Flood Control", "YearCompleted": "1946" }, "geometry": { "type": "Point", "coordinates": [ -111.710987, 33.983792 ] } },
{ "type": "Feature", "properties": { "Name": "Mormon Flat", "Lat": 33.553299, "Long": -111.442984, "MainPurpose": "Hydropower", "YearCompleted": "1925" }, "geometry": { "type": "Point", "coordinates": [ -111.442984, 33.553299 ] } },
{ "type": "Feature", "properties": { "Name": "New Waddell", "Lat": 33.846913, "Long": -112.266186, "MainPurpose": "Municipal", "YearCompleted": "1994" }, "geometry": { "type": "Point", "coordinates": [ -112.266186, 33.846913 ] } },
{ "type": "Feature", "properties": { "Name": "Painted Rock", "Lat": 33.072976, "Long": -113.012282, "MainPurpose": "Flood Control", "YearCompleted": "1960" }, "geometry": { "type": "Point", "coordinates": [ -113.012282, 33.072976 ] } },
{ "type": "Feature", "properties": { "Name": "Sand Hollow", "Lat": 37.11616, "Long": -113.376098, "MainPurpose": "Irrigation", "YearCompleted": "2002" }, "geometry": { "type": "Point", "coordinates": [ -113.376098, 37.11616 ] } },
{ "type": "Feature", "properties": { "Name": "Stewart Mountain", "Lat": 33.566442, "Long": -111.535821, "MainPurpose": "Hydropower", "YearCompleted": "1930" }, "geometry": { "type": "Point", "coordinates": [ -111.535821, 33.566442 ] } },
{ "type": "Feature", "properties": { "Name": "Theodore Roosevelt", "Lat": 33.671338, "Long": -111.161054, "MainPurpose": "Municipal", "YearCompleted": "1911" }, "geometry": { "type": "Point", "coordinates": [ -111.161054, 33.671338 ] } }
]
}
